[
{"code":"ABE","name":"Aberdeen Amtrak Station","lat":39.508447,"lng":-76.16326},
{"code":"ABQ","name":"Albuquerque Alvarado Transportation Center","lat":35.082061,"lng":-106.647975},
{"code":"ACD","name":"Arcadia Valley Station","lat":37.592161,"lng":-90.624403},
{"code":"ADM","name":"Ardmore Amtrak Station","lat":34.172465,"lng":-97.12551},
{"code":"AKY","name":"Ashland Amtrak Station","lat":38.480875,"lng":-82.639603},
{"code":"ALB","name":"Albany-Rensselaer Amtrak Station","lat":42.641029,"lng":-73.741147},
{"code":"ALC","name":"Alliance Amtrak","lat":40.921275,"lng":-81.092904},
{"code":"ALD","name":"Alderson Amtrak","lat":37.724277,"lng":-80.644856},
{"code":"ALI","name":"Albion","lat":42.247196,"lng":-84.755814},
{"code":"ALN","name":"Alton Amtrak Station","lat":38.921007,"lng":-90.157298},
{"code":"ALP","name":"Alpine Amtrak Station","lat":30.357302,"lng":-103.661513},
{"code":"ALT","name":"Altoona Amtrak Station","lat":40.514475,"lng":-78.40162},
{"code":"ALX","name":"Alexandria","lat":38.806503,"lng":-77.06233},
{"code":"ALY","name":"Albany Amtrak Station","lat":44.630464,"lng":-123.102774},
{"code":"AMS","name":"Amsterdam Amtrak Station","lat":42.953719,"lng":-74.2195},
{"code":"ANA","name":"Anaheim","lat":33.803803,"lng":-117.877308},
{"code":"ARB","name":"Ann Arbor Amtrak Station","lat":42.287692,"lng":-83.743154},
{"code":"ARC","name":"Arcata","lat":40.868633,"lng":-124.083805},
{"code":"ARD","name":"Ardmore Amtrak Station","lat":40.008278,"lng":-75.290399},
{"code":"ARK","name":"Arkadelphia Amtrak Station","lat":34.113919,"lng":-93.053284},
{"code":"ARN","name":"Auburn Amtrak","lat":38.903638,"lng":-121.083187},
{"code":"ASD","name":"Ashland Amtrak","lat":37.759596,"lng":-77.481304},
{"code":"AST","name":"Aldershot","lat":43.313413,"lng":-79.855712},
{"code":"ATL","name":"Atlanta","lat":33.799445,"lng":-84.392477},
{"code":"ATN","name":"Anniston Amtrak Station","lat":33.649112,"lng":-85.832145},
{"code":"AUS","name":"Austin","lat":30.269449,"lng":-97.75694},
{"code":"BAL","name":"Baltimore Penn Station","lat":39.307302,"lng":-76.615688},
{"code":"BAM","name":"Bangor Amtrak Station","lat":42.314519,"lng":-86.111646},
{"code":"BAR","name":"Barstow","lat":34.90482,"lng":-117.025435},
{"code":"BAS","name":"Bay St Louis","lat":30.308734,"lng":-89.334},
{"code":"BBK","name":"Burbank","lat":34.178925,"lng":-118.311829},
{"code":"BBS","name":"Barstow Amtrak Bus Stop","lat":34.891277,"lng":-116.998434},
{"code":"BBY","name":"Boston","lat":42.347317,"lng":-71.075828},
{"code":"BCV","name":"Burke Centre Amtrak","lat":38.797271,"lng":-77.29879},
{"code":"BDT","name":"Bradenton","lat":27.528462,"lng":-82.512262},
{"code":"BEL","name":"Bellingham Amtrak Station","lat":48.720263,"lng":-122.511255},
{"code":"BEN","name":"Benson Amtrak","lat":31.968758,"lng":-110.296904},
{"code":"BER","name":"Berlin Amtrak","lat":41.635595,"lng":-72.765274},
{"code":"BFD","name":"Bakersfield","lat":35.37214,"lng":-119.00821},
{"code":"BFX","name":"Buffalo","lat":42.878449,"lng":-78.873748},
{"code":"BHM","name":"Birmingham","lat":33.512937,"lng":-86.807023},
{"code":"BIX","name":"Biloxi Amtrak Sta","lat":30.39905786,"lng":-88.89164084},
{"code":"BKY","name":"Berkeley Amtrak","lat":37.867254,"lng":-122.300707},
{"code":"BLF","name":"Bellows Falls Amtrak Station","lat":43.13654,"lng":-72.444597},
{"code":"BMT","name":"Beaumont Amtrak","lat":30.076458,"lng":-94.127367},
{"code":"BNC","name":"Burlington Amtrak Station","lat":36.094225,"lng":-79.434531},
{"code":"BNF","name":"Branford","lat":41.274549,"lng":-72.817225},
{"code":"BNG","name":"Bingen-White Salmon Amtrak","lat":45.71502,"lng":-121.46873},
{"code":"BNL","name":"Bloomington-Normal","lat":40.50901,"lng":-88.984306},
{"code":"BON","name":"Boston","lat":42.366235,"lng":-71.061122},
{"code":"BOS","name":"Boston","lat":42.352311,"lng":-71.055304},
{"code":"BRA","name":"Brattleboro Amtrak Station","lat":42.850849,"lng":-72.556497},
{"code":"BRH","name":"Brookhaven Amtrak Station","lat":31.582961,"lng":-90.44107},
{"code":"BRK","name":"Brunswick Amtrak Station","lat":43.911388,"lng":-69.965541},
{"code":"BRL","name":"Burlington Amtrak Station","lat":40.805788,"lng":-91.101951},
{"code":"BRO","name":"Browning Amtrak","lat":48.534067,"lng":-113.013151},
{"code":"BRP","name":"Bridgeport Amtrak Station","lat":41.178006,"lng":-73.187539},
{"code":"BTL","name":"Battle Creek","lat":42.318453,"lng":-85.187825},
{"code":"BTN","name":"Burlington","lat":44.4757,"lng":-73.21927},
{"code":"BUF","name":"Buffalo Depew Station","lat":42.907017,"lng":-78.726584},
{"code":"BUL","name":"Buellton Amtrak Bus Stop","lat":34.61066,"lng":-120.186595},
{"code":"BUR","name":"Burbank Amtrak","lat":34.193072,"lng":-118.353767},
{"code":"BWE","name":"Bowie State","lat":39.01783443,"lng":-76.76498908},
{"code":"BWI","name":"Bwi Thurgood Marshall Airport Station","lat":39.192362,"lng":-76.6943},
{"code":"BYN","name":"Bryan Amtrak Station","lat":41.480319,"lng":-84.551799},
{"code":"CAM","name":"Camden Amtrak Station","lat":34.248157,"lng":-80.62519},
{"code":"CBN","name":"Canadian Border","lat":43.109235,"lng":-79.058357},
{"code":"CBR","name":"Cleburne Amtrak Station","lat":32.349743,"lng":-97.382333},
{"code":"CBS","name":"Columbus Amtrak Station","lat":43.340611,"lng":-89.012609},
{"code":"CBZ","name":"Cabazon Amtrak Bus Stop","lat":33.921492,"lng":-116.798713},
{"code":"CDL","name":"Carbondale","lat":37.724235,"lng":-89.216628},
{"code":"CEN","name":"Centralia Amtrak Station","lat":38.527531,"lng":-89.136118},
{"code":"CHI","name":"Chicago Union Station","lat":41.878684,"lng":-87.639443},
{"code":"CHM","name":"Champaign-Urbana","lat":40.115843,"lng":-88.241366},
{"code":"CHS","name":"Charleston Amtrak Station","lat":32.875473,"lng":-79.998048},
{"code":"CHW","name":"Charleston","lat":38.346368,"lng":-81.638494},
{"code":"CIC","name":"Chico Amtrak","lat":39.723259,"lng":-121.845861},
{"code":"CIN","name":"Cincinnati Union Terminal","lat":39.109927,"lng":-84.537061},
{"code":"CLA","name":"Claremont Amtrak","lat":43.36833,"lng":-72.377644},
{"code":"CLB","name":"Columbia Amtrak Station","lat":33.994297,"lng":-81.04049},
{"code":"CLE","name":"Cleveland","lat":41.505787,"lng":-81.696172},
{"code":"CLF","name":"Clifton Forge Amtrak Station","lat":37.814521,"lng":-79.827363},
{"code":"CLM","name":"Claremont Amtrak Station","lat":34.094469,"lng":-117.716857},
{"code":"CLN","name":"Clinton","lat":41.279458,"lng":-72.528314},
{"code":"CLP","name":"Culpeper Amtrak Station","lat":38.47236,"lng":-77.993421},
{"code":"CLT","name":"Charlotte Amtrak Station","lat":35.241403,"lng":-80.822812},
{"code":"CLV","name":"Cloverdale Amtrak Bus Stop","lat":38.79811,"lng":-123.011847},
{"code":"CML","name":"Camarillo Amtrak","lat":34.215933,"lng":-119.034114},
{"code":"CMO","name":"Chemult","lat":43.216784,"lng":-121.781594},
{"code":"CNV","name":"Castleton Amtrak Station","lat":43.613382,"lng":-73.171337},
{"code":"COI","name":"Connersville Amtrak","lat":39.645969,"lng":-85.13338},
{"code":"COT","name":"Coatesville Amtrak","lat":39.985688,"lng":-75.820929},
{"code":"COV","name":"Connellsville Amtrak","lat":40.020282,"lng":-79.592813},
{"code":"COX","name":"Colfax Amtrak Station","lat":39.099172,"lng":-120.953075},
{"code":"CPN","name":"Carpinteria Amtrak","lat":34.39678,"lng":-119.522975},
{"code":"CRF","name":"Crawfordsville Amtrak","lat":40.044705,"lng":-86.899187},
{"code":"CRM","name":"Carmel Amtrak Bus Stop","lat":36.539033,"lng":-121.908797},
{"code":"CRN","name":"Creston Amtrak","lat":41.05692,"lng":-94.361617},
{"code":"CRT","name":"Croton-Harmon Amtrak Station","lat":41.189903,"lng":-73.882394},
{"code":"CRV","name":"Carlinville Amtrak Station","lat":39.279295,"lng":-89.889276},
{"code":"CSN","name":"Clemson Amtrak Station","lat":34.691115,"lng":-82.832501},
{"code":"CTL","name":"Centralia Amtrak Station","lat":46.71747,"lng":-122.953062},
{"code":"CUM","name":"Cumberland Amtrak Station","lat":39.650628,"lng":-78.758},
{"code":"CUT","name":"Cut Bank Amtrak Station","lat":48.638364,"lng":-112.331584},
{"code":"CVS","name":"Charlottesville","lat":38.031484,"lng":-78.491684},
{"code":"CWH","name":"Cornwells Heights Amtrak","lat":40.071663,"lng":-74.952187},
{"code":"CWT","name":"Chatsworth","lat":34.253205,"lng":-118.599417},
{"code":"CYN","name":"Cary","lat":35.788294,"lng":-78.782246},
{"code":"DAL","name":"Dallas","lat":32.776094,"lng":-96.807235},
{"code":"DAN","name":"Danville Amtrak Station","lat":36.58409,"lng":-79.383968},
{"code":"DAV","name":"Davis","lat":38.543562,"lng":-121.737707},
{"code":"DBP","name":"Dublin-Pleasanton Amtrak Station","lat":37.702833,"lng":-121.897697},
{"code":"DDE","name":"Dade City Amtrak Bus Stop","lat":28.364669,"lng":-82.184459},
{"code":"DDG","name":"Dodge City Amtrak Station","lat":37.752306,"lng":-100.016961},
{"code":"DEM","name":"Deming Amtrak","lat":32.27177,"lng":-107.754346},
{"code":"DEN","name":"Denver","lat":39.752959,"lng":-104.999929},
{"code":"DER","name":"Dearborn","lat":42.307167,"lng":-83.235311},
{"code":"DET","name":"Detroit","lat":42.368097,"lng":-83.072397},
{"code":"DFB","name":"Deerfield Beach Amtrak Station","lat":26.317069,"lng":-80.122147},
{"code":"DHM","name":"Durham","lat":43.139328,"lng":-70.936013},
{"code":"DIL","name":"Dillon Amtrak Station","lat":34.417647,"lng":-79.372301},
{"code":"DLB","name":"Delray Beach Amtrak","lat":26.454021,"lng":-80.091154},
{"code":"DLD","name":"Deland","lat":29.017849,"lng":-81.352477},
{"code":"DLK","name":"Detroit Lakes Amtrak Station","lat":46.819692,"lng":-95.845998},
{"code":"DNC","name":"Durham Amtrak Station","lat":35.997347,"lng":-78.906299},
{"code":"DNK","name":"Denmark Amtrak Station","lat":33.326184,"lng":-81.143635},
{"code":"DOA","name":"Dowagiac Amtrak Station","lat":41.980941,"lng":-86.109041},
{"code":"DOV","name":"Dover","lat":43.197968,"lng":-70.878361},
{"code":"DOW","name":"Downingtown Amtrak","lat":40.002193,"lng":-75.710775},
{"code":"DQN","name":"Du Quoin Amtrak Station","lat":38.012328,"lng":-89.240254},
{"code":"DRD","name":"Durand Amtrak Station","lat":42.909495,"lng":-83.98232},
{"code":"DRT","name":"Del Rio Amtrak Station","lat":29.362202,"lng":-100.902662},
{"code":"DUN","name":"Dunsmuir Amtrak Station","lat":41.211127,"lng":-122.270587},
{"code":"DVL","name":"Devils Lake Amtrak Station","lat":48.110468,"lng":-98.861372},
{"code":"DWT","name":"Dwight Amtrak Station","lat":41.089854,"lng":-88.430707},
{"code":"DYE","name":"Dyer Amtrak","lat":41.515413,"lng":-87.518076},
{"code":"EDG","name":"Edgewood","lat":39.41624514,"lng":-76.29281265},
{"code":"EDM","name":"Edmonds","lat":47.811081,"lng":-122.384141},
{"code":"EFG","name":"Effingham Amtrak Station","lat":39.117059,"lng":-88.54711},
{"code":"EKA","name":"Eureka Amtrak Bus Stop","lat":40.800739,"lng":-124.16933},
{"code":"EKG","name":"Elk Grove Amtrak Bus Stop","lat":38.424746,"lng":-121.480807},
{"code":"EKH","name":"Elkhart Amtrak Station","lat":41.680748,"lng":-85.971848},
{"code":"ELK","name":"Elko Amtrak","lat":40.836483,"lng":-115.75053},
{"code":"ELP","name":"El Paso","lat":31.757346,"lng":-106.495644},
{"code":"ELT","name":"Elizabethtown Amtrak Station","lat":40.147028,"lng":-76.612234},
{"code":"ELY","name":"Elyria Amtrak","lat":41.370033,"lng":-82.096685},
{"code":"EMY","name":"Emeryville","lat":37.840474,"lng":-122.291615},
{"code":"EPH","name":"Ephrata Amtrak","lat":47.320948,"lng":-119.549267},
{"code":"ERI","name":"Erie Amtrak Station","lat":42.120847,"lng":-80.082444},
{"code":"ESM","name":"Essex Amtrak","lat":48.275543,"lng":-113.610942},
{"code":"ESX","name":"Essex Junction-Burlington Amtrak Station","lat":44.492466,"lng":-73.110277},
{"code":"EUG","name":"Eugene","lat":44.055043,"lng":-123.092361},
{"code":"EVR","name":"Everett Amtrak Station","lat":47.975401,"lng":-122.197858},
{"code":"EWR","name":"Newark Liberty International Airport","lat":40.696618,"lng":-74.18229},
{"code":"EXR","name":"Exeter","lat":42.98102,"lng":-70.9587},
{"code":"EXT","name":"Exton Amtrak","lat":40.019291,"lng":-75.621713},
{"code":"FAR","name":"Fargo Amtrak Station","lat":46.880982,"lng":-96.785372},
{"code":"FAY","name":"Fayetteville Amtrak Station","lat":35.054993,"lng":-78.884788},
{"code":"FBG","name":"Fredericksburg Amtrak","lat":38.298413,"lng":-77.457203},
{"code":"FED","name":"Fort Edward Amtrak","lat":43.269603,"lng":-73.58055},
{"code":"FFV","name":"Fairfield-Vacaville Amtrak Station","lat":38.285626,"lng":-121.967926},
{"code":"FHD","name":"Fort Hood Amtrak Bus Stop","lat":31.141597,"lng":-97.766812},
{"code":"FIL","name":"Fillmore Amtrak Bus Stop","lat":34.396009,"lng":-118.918319},
{"code":"FLG","name":"Flagstaff","lat":35.197374,"lng":-111.648871},
{"code":"FLN","name":"Flint Amtrak Station","lat":43.015425,"lng":-83.651728},
{"code":"FLO","name":"Florence Amtrak Station","lat":34.199157,"lng":-79.757056},
{"code":"FMD","name":"Fort Madison","lat":40.629558,"lng":-91.313529},
{"code":"FMG","name":"Fort Morgan Amtrak Station","lat":40.247169,"lng":-103.802818},
{"code":"FMT","name":"Fremont","lat":37.559093,"lng":-122.007496},
{"code":"FNO","name":"Fresno","lat":36.738457,"lng":-119.782926},
{"code":"FRA","name":"Framingham Amtrak","lat":42.275993,"lng":-71.420033},
{"code":"FRE","name":"Freeport Amtrak Station","lat":43.855035,"lng":-70.102358},
{"code":"FRT","name":"Fremont Amtrak Bus Stop","lat":37.53915,"lng":-121.92364},
{"code":"FTA","name":"Fortuna Amtrak Bus Stop","lat":40.583672,"lng":-124.146188},
{"code":"FTC","name":"Ticonderoga Amtrak","lat":43.853788,"lng":-73.389681},
{"code":"FTL","name":"Fort Lauderdale Amtrak Station","lat":26.119256,"lng":-80.17},
{"code":"FTM","name":"Fort Myers Amtrak Bus Stop","lat":26.655312,"lng":-81.801382},
{"code":"FTN","name":"Fulton Amtrak Station","lat":36.525704,"lng":-88.888772},
{"code":"FTW","name":"Fort Worth","lat":32.7515305,"lng":-97.3257888},
{"code":"FUL","name":"Fullerton Amtrak Station","lat":33.868969,"lng":-117.922849},
{"code":"GAC","name":"Santa Clara Great America Amtrak","lat":37.406778,"lng":-121.967003},
{"code":"GAS","name":"Gastonia Amtrak Station","lat":35.269186,"lng":-81.162366},
{"code":"GBB","name":"Galesburg Amtrak Station","lat":40.944678,"lng":-90.364106},
{"code":"GBO","name":"Goldsboro","lat":35.385675,"lng":-78.003337},
{"code":"GBV","name":"Garberville Amtrak Bus Stop","lat":40.097719,"lng":-123.79523},
{"code":"GCK","name":"Garden City Amtrak Station","lat":37.964365,"lng":-100.873256},
{"code":"GDL","name":"Glendale Amtrak","lat":34.123706,"lng":-118.258868},
{"code":"GFD","name":"Greenfield Amtrak Station","lat":42.585458,"lng":-72.600765},
{"code":"GFK","name":"Grand Forks Amtrak Station","lat":47.917522,"lng":-97.110835},
{"code":"GGW","name":"Glasgow Amtrak Station","lat":48.194854,"lng":-106.636188},
{"code":"GJT","name":"Grand Junction Amtrak Station","lat":39.064375,"lng":-108.569929},
{"code":"GLE","name":"Gainesville Amtrak Station","lat":33.625159,"lng":-97.140896},
{"code":"GLM","name":"Gilman Amtrak","lat":40.752547,"lng":-87.998055},
{"code":"GLN","name":"Glenview Amtrak Station","lat":42.075038,"lng":-87.805562},
{"code":"GLP","name":"Gallup Amtrak Station","lat":35.529176,"lng":-108.740548},
{"code":"GLY","name":"Gilroy","lat":37.003961,"lng":-121.566798},
{"code":"GMS","name":"Grimsby","lat":43.195949,"lng":-79.557945},
{"code":"GNB","name":"Greensburg Amtrak","lat":40.304986,"lng":-79.546893},
{"code":"GNF","name":"Gainesville Amtrak Bus Stop","lat":29.673652,"lng":-82.323379},
{"code":"GNS","name":"Gainesville Amtrak Station","lat":34.288897,"lng":-83.819694},
{"code":"GPK","name":"East Glacier Park Amtrak Station","lat":48.442333,"lng":-113.219523},
{"code":"GRA","name":"Granby Amtrak Station","lat":40.084188,"lng":-105.935503},
{"code":"GRI","name":"Green River Amtrak","lat":38.992039,"lng":-110.165228},
{"code":"GRN","name":"Greenville Amtrak Bus Stop","lat":35.610198,"lng":-77.377078},
{"code":"GRO","name":"Greensboro","lat":36.069797,"lng":-79.78708},
{"code":"GRR","name":"Grand Rapids Vernon J. Ehlers Station","lat":42.955788,"lng":-85.672447},
{"code":"GRV","name":"Greenville Amtrak Station","lat":34.858256,"lng":-82.413486},
{"code":"GSC","name":"Glenwood Springs","lat":39.547903,"lng":-107.323218},
{"code":"GTA","name":"Goleta Amtrak","lat":34.437729,"lng":-119.843092},
{"code":"GUA","name":"Guadalupe Amtrak Station","lat":34.962927,"lng":-120.57341},
{"code":"GUF","name":"Gulfport Amtrak Sta","lat":30.369036,"lng":-89.09478},
{"code":"GUI","name":"Guilford","lat":41.275603,"lng":-72.673513},
{"code":"GVB","name":"Grover Beach Amtrak","lat":35.12126,"lng":-120.629266},
{"code":"GWD","name":"Greenwood Amtrak Station","lat":33.517159,"lng":-90.176454},
{"code":"HAE","name":"Halethorpe","lat":39.2371851,"lng":-76.69148125},
{"code":"HAM","name":"Hamlet Amtrak Station","lat":34.883663,"lng":-79.699218},
{"code":"HAR","name":"Harrisburg","lat":40.26205,"lng":-76.878256},
{"code":"HAS","name":"Hastings Amtrak Station","lat":40.584276,"lng":-98.387534},
{"code":"HAV","name":"Havre Amtrak Station","lat":48.554465,"lng":-109.678352},
{"code":"HAY","name":"Hayward Amtrak","lat":37.665997,"lng":-122.099277},
{"code":"HAZ","name":"Hazlehurst Amtrak","lat":31.86132,"lng":-90.394347},
{"code":"HBG","name":"Hattiesburg Amtrak Station","lat":31.326921,"lng":-89.286463},
{"code":"HEA","name":"Healdsburg Amtrak Bus Stop","lat":38.606841,"lng":-122.869456},
{"code":"HEM","name":"Hermann","lat":38.707283,"lng":-91.432558},
{"code":"HER","name":"Helper Amtrak Station","lat":39.684036,"lng":-110.853894},
{"code":"HFD","name":"Hartford Amtrak Station","lat":41.768761,"lng":-72.681314},
{"code":"HFY","name":"Harpers Ferry Amtrak","lat":39.324452,"lng":-77.731078},
{"code":"HGD","name":"Huntingdon Amtrak Station","lat":40.483665,"lng":-78.01178},
{"code":"HHL","name":"Haverhill Amtrak","lat":42.773297,"lng":-71.086375},
{"code":"HIN","name":"Hinton Amtrak Station","lat":37.675037,"lng":-80.892232},
{"code":"HLD","name":"Holdrege","lat":40.436013,"lng":-99.370077},
{"code":"HLK","name":"Holyoke Amtrak","lat":42.204156,"lng":-72.602309},
{"code":"HMD","name":"Hammond Amtrak Station","lat":30.50718,"lng":-90.462169},
{"code":"HMI","name":"Hammond-Whiting Amtrak Station","lat":41.691155,"lng":-87.506511},
{"code":"HMW","name":"Homewood","lat":41.562446,"lng":-87.668685},
{"code":"HNF","name":"Hanford","lat":36.326078,"lng":-119.651816},
{"code":"HOL","name":"Hollywood Amtrak Station","lat":26.011641,"lng":-80.167884},
{"code":"HOM","name":"Holland Amtrak Station","lat":42.791096,"lng":-86.096553},
{"code":"HOP","name":"Hope Amtrak Station","lat":33.668913,"lng":-93.592247},
{"code":"HOS","name":"Houston","lat":29.767245,"lng":-95.367526},
{"code":"HPT","name":"High Point","lat":35.957128,"lng":-80.006097},
{"code":"HSU","name":"Arcata","lat":40.873347,"lng":-124.081496},
{"code":"HUD","name":"Hudson Amtrak Station","lat":42.253891,"lng":-73.797729},
{"code":"HUN","name":"Huntington Amtrak Station","lat":38.41582,"lng":-82.439735},
{"code":"HUT","name":"Hutchinson Amtrak Station","lat":38.055712,"lng":-97.931522},
{"code":"HVL","name":"Havelock","lat":34.891191,"lng":-76.926115},
{"code":"IDO","name":"Indio Amtrak Bus Stop","lat":33.714863,"lng":-116.233132},
{"code":"IDP","name":"Independence Amtrak Station","lat":39.086917,"lng":-94.429711},
{"code":"IND","name":"Indianapolis","lat":39.761984,"lng":-86.160423},
{"code":"IRV","name":"Irvine","lat":33.656771,"lng":-117.733695},
{"code":"JAN","name":"Jackson","lat":32.300808,"lng":-90.190936},
{"code":"JAX","name":"Jacksonville","lat":30.365601,"lng":-81.723893},
{"code":"JEF","name":"Jefferson City Amtrak Station","lat":38.57887,"lng":-92.169906},
{"code":"JNC","name":"Jacksonville Amtrak Bus Stop","lat":34.748949,"lng":-77.41962},
{"code":"JOL","name":"Joliet Gateway Center","lat":41.524647,"lng":-88.078731},
{"code":"JSP","name":"Jesup Amtrak Station","lat":31.605589,"lng":-81.882173},
{"code":"JST","name":"Johnstown Amtrak Station","lat":40.329689,"lng":-78.921996},
{"code":"JXN","name":"Jackson","lat":42.248113,"lng":-84.39967},
{"code":"KAL","name":"Kalamazoo","lat":42.295255,"lng":-85.584018},
{"code":"KAN","name":"Kannapolis","lat":35.496172,"lng":-80.624928},
{"code":"KCY","name":"Kansas City","lat":39.084576,"lng":-94.585129},
{"code":"KEE","name":"Kewanee Amtrak Station","lat":41.245765,"lng":-89.927544},
{"code":"KEL","name":"Kelso-Longview","lat":46.142264,"lng":-122.913016},
{"code":"KFS","name":"Klamath Falls","lat":42.225509,"lng":-121.771952},
{"code":"KGC","name":"King City Amtrak Bus Stop","lat":36.202547,"lng":-121.136344},
{"code":"KIL","name":"Killeen Amtrak Station","lat":31.121152,"lng":-97.728617},
{"code":"KIN","name":"Kingston Amtrak Station","lat":41.483959,"lng":-71.560597},
{"code":"KIS","name":"Kissimmee Amtrak Station","lat":28.293835,"lng":-81.404234},
{"code":"KKI","name":"Kankakee","lat":41.119259,"lng":-87.86543},
{"code":"KNC","name":"Kinston","lat":35.243706,"lng":-77.584478},
{"code":"KNG","name":"Kingman","lat":35.188279,"lng":-114.052816},
{"code":"KTR","name":"Kingstree Amtrak Station","lat":33.663882,"lng":-79.829026},
{"code":"KWD","name":"Kirkwood Amtrak Station","lat":38.581067,"lng":-90.406761},
{"code":"LAB","name":"Latrobe Amtrak","lat":40.317405,"lng":-79.385083},
{"code":"LAF","name":"Lafayette Amtrak Station","lat":40.419347,"lng":-86.895901},
{"code":"LAG","name":"La Grange Amtrak","lat":41.815634,"lng":-87.871545},
{"code":"LAJ","name":"La Junta Amtrak Station","lat":37.988249,"lng":-103.543576},
{"code":"LAK","name":"Lakeland Amtrak Station","lat":28.045603,"lng":-81.951874},
{"code":"LAP","name":"La Plata Amtrak Station","lat":40.02922,"lng":-92.493384},
{"code":"LAS","name":"Mccarran International Airport Amtrak Bus Stop","lat":36.085973,"lng":-115.148493},
{"code":"LAU","name":"Laurel Amtrak Station","lat":31.692168,"lng":-89.127933},
{"code":"LAX","name":"Los Angeles","lat":34.056177,"lng":-118.236778},
{"code":"LBO","name":"Lbo","lat":54.77395978,"lng":-101.84806319},
{"code":"LCA","name":"La Crescenta Amtrak Bus Stop","lat":34.231944,"lng":-118.266511},
{"code":"LCH","name":"Lake Charles","lat":30.238126,"lng":-93.217037},
{"code":"LCN","name":"Lincoln Amtrak Station","lat":40.148199,"lng":-89.363051},
{"code":"LDB","name":"Lordsburg Amtrak","lat":32.35007,"lng":-108.707025},
{"code":"LEE","name":"Lee'S Summit Amtrak","lat":38.912623,"lng":-94.377972},
{"code":"LEG","name":"Leggett Amtrak Bus Stop","lat":39.878226,"lng":-123.727964},
{"code":"LEW","name":"Lewistown Amtrak Station","lat":40.588309,"lng":-77.580047},
{"code":"LFT","name":"Lafayette Amtrak Station","lat":30.226548,"lng":-92.014519},
{"code":"LIB","name":"Libby Amtrak Station","lat":48.394842,"lng":-115.54889},
{"code":"LIV","name":"Livermore Amtrak Bus Stop","lat":37.684915,"lng":-121.767121},
{"code":"LKL","name":"Lakeland","lat":28.045603,"lng":-81.951874},
{"code":"LMR","name":"Lamar Amtrak","lat":38.089623,"lng":-102.618574},
{"code":"LMY","name":"Lamy","lat":35.480973,"lng":-105.879968},
{"code":"LNC","name":"Lancaster","lat":40.054181,"lng":-76.307714},
{"code":"LNK","name":"Lincoln Amtrak Station","lat":40.815871,"lng":-96.71317},
{"code":"LNS","name":"East Lansing Amtrak Station","lat":42.718731,"lng":-84.495962},
{"code":"LNV","name":"Laughlin Amtrak Bus Stop","lat":35.161464,"lng":-114.576557},
{"code":"LOD","name":"Lodi Amtrak Station","lat":38.133201,"lng":-121.271887},
{"code":"LOH","name":"Los Alamos Amtrak Bus Stop","lat":35.827795,"lng":-106.208804},
{"code":"LOR","name":"Lorton Amtrak Auto Train Station","lat":38.708143,"lng":-77.220942},
{"code":"LOS","name":"Los Alamos Amtrak Bus Stop","lat":35.881799,"lng":-106.29992},
{"code":"LPE","name":"Lapeer Amtrak Station","lat":43.04952,"lng":-83.306154},
{"code":"LPS","name":"Lompoc-Surf Amtrak","lat":34.682704,"lng":-120.605001},
{"code":"LQT","name":"La Quinta Amtrak Bus Stop","lat":33.710979,"lng":-116.289964},
{"code":"LRC","name":"Lawrence Amtrak Station","lat":38.971166,"lng":-95.230539},
{"code":"LRK","name":"Little Rock Union Station","lat":34.750298,"lng":-92.286785},
{"code":"LSE","name":"La Crosse","lat":43.833155,"lng":-91.247298},
{"code":"LSV","name":"Las Vegas Amtrak Station","lat":35.593432,"lng":-105.212779},
{"code":"LTV","name":"Laytonville Amtrak Bus Stop","lat":39.686633,"lng":-123.482019},
{"code":"LVS","name":"Las Vegas","lat":36.164458,"lng":-115.149734},
{"code":"LVT","name":"Las Vegas Amtrak Bus Stop","lat":36.068464,"lng":-115.163629},
{"code":"LVW","name":"Longview","lat":32.494032,"lng":-94.728322},
{"code":"LWA","name":"Leavenworth Amtrak","lat":47.606493,"lng":-120.643965},
{"code":"LYH","name":"Lynchburg","lat":37.406439,"lng":-79.156934},
{"code":"MAC","name":"Macomb Amtrak Station","lat":40.461212,"lng":-90.67094},
{"code":"MAL","name":"Malta Amtrak Station","lat":48.360477,"lng":-107.872242},
{"code":"MAT","name":"Mattoon Amtrak Station","lat":39.48273,"lng":-88.376045},
{"code":"MAY","name":"Maysville Amtrak Station","lat":38.652148,"lng":-83.771074},
{"code":"MBY","name":"Middlebury","lat":44.017425,"lng":-73.169775},
{"code":"MCB","name":"Mccomb","lat":31.244467,"lng":-90.451334},
{"code":"MCD","name":"Merced","lat":37.307183,"lng":-120.476805},
{"code":"MCG","name":"Mcgregor Amtrak","lat":31.443352,"lng":-97.404756},
{"code":"MCK","name":"Mccook Amtrak Station","lat":40.197634,"lng":-100.625792},
{"code":"MDN","name":"Meriden","lat":41.539385,"lng":-72.800678},
{"code":"MDS","name":"Madison","lat":41.283577,"lng":-72.599444},
{"code":"MDT","name":"Mendota Amtrak Station","lat":41.549584,"lng":-89.11792},
{"code":"MEI","name":"Meridian Union Station","lat":32.364166,"lng":-88.696568},
{"code":"MEM","name":"Memphis","lat":35.132458,"lng":-90.059109},
{"code":"MET","name":"Metropark Amtrak Station","lat":40.568056,"lng":-74.329583},
{"code":"MHD","name":"Morehead City","lat":34.721383,"lng":-76.71568},
{"code":"MHL","name":"Marshall Amtrak Station","lat":32.551549,"lng":-94.366995},
{"code":"MIA","name":"Miami Amtrak Station","lat":25.849554,"lng":-80.257759},
{"code":"MID","name":"Middletown","lat":40.195658,"lng":-76.736482},
{"code":"MIN","name":"Mineola","lat":32.662049,"lng":-95.4891},
{"code":"MJY","name":"Mount Joy Amtrak","lat":40.109165,"lng":-76.503443},
{"code":"MKA","name":"General Mitchell Intl. Airport Amtrak Station","lat":42.940583,"lng":-87.924359},
{"code":"MKE","name":"Milwaukee","lat":43.034518,"lng":-87.917104},
{"code":"MKS","name":"Marks Amtrak","lat":34.258227,"lng":-90.272342},
{"code":"MNG","name":"Montgomery Amtrak","lat":38.180743,"lng":-81.32403},
{"code":"MOE","name":"Mobile Amtrak Sta","lat":30.690853,"lng":-88.03829},
{"code":"MOJ","name":"Mojave Amtrak Bus Stop","lat":35.05249,"lng":-118.173181},
{"code":"MOT","name":"Minot Amtrak Station","lat":48.236083,"lng":-101.298557},
{"code":"MPK","name":"Moorpark Amtrak","lat":34.28476,"lng":-118.878059},
{"code":"MPR","name":"Montpelier-Berlin Amtrak Station","lat":44.255749,"lng":-72.606394},
{"code":"MRB","name":"Martinsburg Amtrak Station","lat":39.458661,"lng":-77.961014},
{"code":"MRC","name":"Maricopa","lat":33.056284,"lng":-112.047137},
{"code":"MRV","name":"Marysville Amtrak Station","lat":39.143721,"lng":-121.597259},
{"code":"MRY","name":"Monterey Amtrak Bus Stop","lat":36.597611,"lng":-121.894331},
{"code":"MSA","name":"Martin Airport","lat":39.33012395,"lng":-76.42143326},
{"code":"MSP","name":"St. Paul-Minneapolis","lat":44.947661,"lng":-93.085355},
{"code":"MSS","name":"Manassas Amtrak Station","lat":38.75027825,"lng":-77.47278955},
{"code":"MTP","name":"Mt. Pleasant Amtrak Station","lat":40.971179,"lng":-91.550772},
{"code":"MTR","name":"Montreal Central Station","lat":45.500169,"lng":-73.565767},
{"code":"MTZ","name":"Martinez","lat":38.018921,"lng":-122.138784},
{"code":"MVN","name":"Malvern Amtrak","lat":34.365484,"lng":-92.814018},
{"code":"MVW","name":"Mount Vernon Amtrak Station","lat":48.41847,"lng":-122.334738},
{"code":"MYA","name":"Monterey Amtrak Bus Stop","lat":36.61768,"lng":-121.90164},
{"code":"MYH","name":"Monterey Amtrak Bus Stop","lat":36.591861,"lng":-121.877311},
{"code":"MYM","name":"Monterey Amtrak Bus Stop","lat":36.600593,"lng":-121.894921},
{"code":"MYS","name":"Mystic Amtrak","lat":41.350934,"lng":-71.963093},
{"code":"MYT","name":"Monterey Amtrak Bus Stop","lat":36.595379,"lng":-121.892522},
{"code":"MYU","name":"Seaside-Marina","lat":36.653516,"lng":-121.801379},
{"code":"NAP","name":"Napa Amtrak Bus Stop","lat":38.297617,"lng":-122.280022},
{"code":"NBK","name":"New Brunswick Amtrak Station","lat":40.496522,"lng":-74.446265},
{"code":"NBN","name":"Newbern-Dyersburg Amtrak Station","lat":36.112711,"lng":-89.262264},
{"code":"NBR","name":"New Bern Amtrak Bus Stop","lat":35.104416,"lng":-77.036948},
{"code":"NBU","name":"New Buffalo Amtrak","lat":41.796656,"lng":-86.745782},
{"code":"NCG","name":"Nacogdoches Amtrak Bus Stop","lat":31.700274,"lng":-94.675886},
{"code":"NCR","name":"New Carrollton Amtrak Station","lat":38.948098,"lng":-76.871494},
{"code":"NDL","name":"Needles Amtrak","lat":34.840616,"lng":-114.606188},
{"code":"NEW","name":"Newton","lat":38.046976,"lng":-97.344886},
{"code":"NFK","name":"Norfolk","lat":36.843509,"lng":-76.276195},
{"code":"NFL","name":"Niagara Falls Amtrak Station","lat":43.109908,"lng":-79.055276},
{"code":"NFS","name":"Niagara Falls","lat":43.108736,"lng":-79.063291},
{"code":"NHL","name":"Santa Clarita-Newhall Amtrak Station","lat":34.379451,"lng":-118.527338},
{"code":"NHT","name":"Northampton","lat":42.318858,"lng":-72.626379},
{"code":"NHV","name":"New Haven","lat":41.297714,"lng":-72.92667},
{"code":"NIB","name":"New Iberia Amtrak","lat":30.008415,"lng":-91.823809},
{"code":"NLC","name":"New London","lat":41.354267,"lng":-72.093225},
{"code":"NLS","name":"Niles Amtrak Station","lat":41.837412,"lng":-86.252372},
{"code":"NOL","name":"New Orleans Union Passenger Terminal","lat":29.946085,"lng":-90.078291},
{"code":"NOR","name":"Norman Amtrak Station","lat":35.219963,"lng":-97.443013},
{"code":"NPN","name":"Newport News","lat":37.122325,"lng":-76.517023},
{"code":"NPV","name":"Naperville Amtrak Station","lat":41.779514,"lng":-88.145497},
{"code":"NRG","name":"Northridge","lat":34.230659,"lng":-118.545417},
{"code":"NRK","name":"Newark Amtrak","lat":39.669686,"lng":-75.753513},
{"code":"NRO","name":"New Rochelle Amtrak Station","lat":40.911451,"lng":-73.784329},
{"code":"NWK","name":"Newark","lat":40.734706,"lng":-74.16475},
{"code":"NYP","name":"Ny Moynihan Train Hall At Penn Station","lat":40.750327,"lng":-73.994459},
{"code":"OAC","name":"Oakland Coliseum/Airport Amtrak","lat":37.752499,"lng":-122.198147},
{"code":"OCA","name":"Ocala Amtrak Bus Stop","lat":29.192235,"lng":-82.135282},
{"code":"OKC","name":"Oklahoma City","lat":35.46549,"lng":-97.512749},
{"code":"OKE","name":"Okeechobee Amtrak","lat":27.251867,"lng":-80.830812},
{"code":"OKJ","name":"Oakland","lat":37.793866,"lng":-122.271667},
{"code":"OKL","name":"Oakville","lat":43.455394,"lng":-79.682392},
{"code":"OLT","name":"San Diego Old Town Transportation Center","lat":32.755266,"lng":-117.200073},
{"code":"OLW","name":"Olympia-Lacey Amtrak Station","lat":46.991273,"lng":-122.794059},
{"code":"OMA","name":"Omaha Amtrak Station","lat":41.249697,"lng":-95.927201},
{"code":"ONA","name":"Ontario Amtrak","lat":34.061672,"lng":-117.649569},
{"code":"ORB","name":"Old Orchard Beach Amtrak","lat":43.514326,"lng":-70.376225},
{"code":"ORC","name":"Oregon City Amtrak","lat":45.366146,"lng":-122.595925},
{"code":"ORL","name":"Orlando","lat":28.525926,"lng":-81.381516},
{"code":"ORV","name":"Oroville Amtrak Bus Stop","lat":39.520057,"lng":-121.572102},
{"code":"OSB","name":"Old Saybrook Amtrak Station","lat":41.30039,"lng":-72.376818},
{"code":"OSC","name":"Osceola Amtrak Station","lat":41.037116,"lng":-93.764894},
{"code":"OSD","name":"Oceanside","lat":33.192515,"lng":-117.37943},
{"code":"OTM","name":"Ottumwa Amtrak Station","lat":41.018815,"lng":-92.414929},
{"code":"OTN","name":"Odenton","lat":39.0871363,"lng":-76.7064122},
{"code":"OXN","name":"Oxnard","lat":34.199241,"lng":-119.175978},
{"code":"PAG","name":"Pascagoula","lat":30.367846,"lng":-88.559546},
{"code":"PAK","name":"Palatka Amtrak","lat":29.649734,"lng":-81.640471},
{"code":"PAO","name":"Paoli Amtrak Station","lat":40.042754,"lng":-75.48376},
{"code":"PAR","name":"Parkesburg Amtrak","lat":39.95918,"lng":-75.922123},
{"code":"PAS","name":"Pasadena Amtrak Bus Stop","lat":34.143079,"lng":-118.141295},
{"code":"PBF","name":"Poplar Bluff Amtrak Station","lat":36.753995,"lng":-90.393341},
{"code":"PCH","name":"Port Charlotte Amtrak Bus Stop","lat":27.016842,"lng":-82.050609},
{"code":"PCT","name":"Princeton Amtrak Station","lat":41.385191,"lng":-89.466815},
{"code":"PDC","name":"Palm Desert Amtrak Bus Stop","lat":33.725715,"lng":-116.398519},
{"code":"PDX","name":"Portland","lat":45.528724,"lng":-122.676806},
{"code":"PGH","name":"Pittsburgh Amtrak Station","lat":40.444738,"lng":-79.992307},
{"code":"PHA","name":"Phoenix Sky Harbor Airport Amtrak Station","lat":33.43639,"lng":-112.013047},
{"code":"PHL","name":"Philadelphia","lat":39.955615,"lng":-75.181041},
{"code":"PHN","name":"North Philadelphia Amtrak Station","lat":39.99678,"lng":-75.155114},
{"code":"PIA","name":"Peoria Amtrak Station","lat":40.689364,"lng":-89.593643},
{"code":"PIC","name":"Picayune Amtrak Station","lat":30.524606,"lng":-89.68026},
{"code":"PIT","name":"Pittsfield Amtrak Station","lat":42.451558,"lng":-73.2538},
{"code":"PJC","name":"Princeton Junction Amtrak Station","lat":40.31585,"lng":-74.623976},
{"code":"PLB","name":"Plattsburgh Amtrak Station","lat":44.696728,"lng":-73.446284},
{"code":"PLO","name":"Plano Amtrak Station","lat":41.662384,"lng":-88.538272},
{"code":"PNT","name":"Pontiac Amtrak Station","lat":42.632771,"lng":-83.292325},
{"code":"POG","name":"Portage","lat":43.547079,"lng":-89.467627},
{"code":"POH","name":"Port Henry Amtrak Station","lat":44.042297,"lng":-73.458753},
{"code":"PON","name":"Pontiac Amtrak Station","lat":40.878687,"lng":-88.637198},
{"code":"POR","name":"Portland","lat":43.654097,"lng":-70.291258},
{"code":"POS","name":"Pomona Amtrak","lat":34.059224,"lng":-117.750621},
{"code":"POU","name":"Poughkeepsie Amtrak Station","lat":41.707056,"lng":-73.93749},
{"code":"PRB","name":"Paso Robles Amtrak Station","lat":35.622683,"lng":-120.68786},
{"code":"PRC","name":"Prince Amtrak Station","lat":37.856594,"lng":-81.060694},
{"code":"PRO","name":"Provo Amtrak","lat":40.225957,"lng":-111.664001},
{"code":"PRV","name":"Perryville","lat":39.5579616,"lng":-76.0732195},
{"code":"PSC","name":"Pasco Amtrak Station","lat":46.237012,"lng":-119.087729},
{"code":"PSN","name":"Palm Springs Amtrak","lat":33.897491,"lng":-116.547913},
{"code":"PSP","name":"Palm Springs Airport Amtrak Bus Stop","lat":33.824009,"lng":-116.508939},
{"code":"PSS","name":"Palm Springs Amtrak Bus Stop","lat":33.824643,"lng":-116.54544},
{"code":"PTB","name":"Petersburg Amtrak Station","lat":37.241627,"lng":-77.428794},
{"code":"PTC","name":"Petaluma","lat":38.2365,"lng":-122.635793},
{"code":"PTH","name":"Port Huron Amtrak Station","lat":42.960419,"lng":-82.443805},
{"code":"PUR","name":"Purcell Amtrak Station","lat":35.012033,"lng":-97.357416},
{"code":"PVD","name":"Providence","lat":41.82949,"lng":-71.413478},
{"code":"PVL","name":"Pauls Valley Amtrak Station","lat":34.741735,"lng":-97.21846},
{"code":"PXN","name":"North Phoenix Metro Center Transit Station","lat":33.639498,"lng":-112.119188},
{"code":"QAN","name":"Quantico Amtrak","lat":38.521882,"lng":-77.293027},
{"code":"QCY","name":"Quincy Amtrak Station","lat":39.957063,"lng":-91.368525},
{"code":"RAT","name":"Raton","lat":36.901072,"lng":-104.437886},
{"code":"RBF","name":"Red Bluff Amtrak Bus Stop","lat":40.178482,"lng":-122.234586},
{"code":"RDD","name":"Redding Amtrak","lat":40.583595,"lng":-122.39337},
{"code":"RDW","name":"Red Wing Amtrak Station","lat":44.566214,"lng":-92.537066},
{"code":"REN","name":"Rensselaer Amtrak","lat":40.943281,"lng":-87.155121},
{"code":"RGH","name":"Raleigh Union Station","lat":35.777209,"lng":-78.647784},
{"code":"RHI","name":"Rhinecliff Amtrak Station","lat":41.921346,"lng":-73.951278},
{"code":"RIC","name":"Richmond","lat":37.936752,"lng":-122.35413},
{"code":"RIV","name":"Riverside","lat":33.97567,"lng":-117.369988},
{"code":"RKH","name":"Rkh","lat":34.968558,"lng":-79.606071},
{"code":"RKV","name":"Rockville Amtrak","lat":39.084547,"lng":-77.145995},
{"code":"RLN","name":"Rocklin Amtrak Station","lat":38.791006,"lng":-121.237299},
{"code":"RMT","name":"Rocky Mount","lat":35.938001,"lng":-77.797855},
{"code":"RNK","name":"Roanoke","lat":37.273185,"lng":-79.941795},
{"code":"RNO","name":"Reno","lat":39.528521,"lng":-119.812123},
{"code":"ROC","name":"Rochester","lat":43.163411,"lng":-77.608057},
{"code":"ROM","name":"Rome Amtrak Station","lat":43.199425,"lng":-75.44996},
{"code":"ROY","name":"Royal Oak Amtrak","lat":42.488439,"lng":-83.14701},
{"code":"RPC","name":"Rohnert Park Amtrak Bus Stop","lat":38.347328,"lng":-122.709749},
{"code":"RPH","name":"Randolph Amtrak","lat":43.922398,"lng":-72.665459},
{"code":"RSP","name":"Rouses Point Amtrak","lat":44.99487,"lng":-73.371093},
{"code":"RSV","name":"Roseville Amtrak","lat":38.750016,"lng":-121.286286},
{"code":"RTE","name":"Route 128 Amtrak Station","lat":42.210242,"lng":-71.147894},
{"code":"RTL","name":"Rantoul Amtrak","lat":40.310905,"lng":-88.159126},
{"code":"RUD","name":"Rutland","lat":43.605756,"lng":-72.981538},
{"code":"RUG","name":"Rugby Amtrak Station","lat":48.369846,"lng":-99.997556},
{"code":"RVM","name":"Richmond Main Street Amtrak Station","lat":37.534209,"lng":-77.429512},
{"code":"RVR","name":"Richmond Staples Mill Road Amtrak Station","lat":37.617693,"lng":-77.496943},
{"code":"SAB","name":"St. Albans Amtrak Station","lat":44.81236,"lng":-73.086191},
{"code":"SAC","name":"Sacramento","lat":38.584004,"lng":-121.500704},
{"code":"SAE","name":"Santa Fe Amtrak Bus Stop","lat":35.799738,"lng":-105.921959},
{"code":"SAF","name":"Santa Fe Amtrak Station","lat":35.684265,"lng":-105.946599},
{"code":"SAL","name":"Salisbury","lat":35.667496,"lng":-80.466323},
{"code":"SAN","name":"San Diego","lat":32.716169,"lng":-117.169576},
{"code":"SAO","name":"Saco Amtrak Station","lat":43.496191,"lng":-70.449139},
{"code":"SAP","name":"Santa Paula Amtrak Bus Stop","lat":34.346197,"lng":-119.06906},
{"code":"SAR","name":"Saratoga Springs Amtrak Station","lat":43.08281,"lng":-73.810027},
{"code":"SAS","name":"San Antonio Amtrak Station","lat":29.41935,"lng":-98.478143},
{"code":"SAT","name":"Santa Maria Amtrak Bus Stop","lat":34.951608,"lng":-120.416455},
{"code":"SAV","name":"Savannah","lat":32.083412,"lng":-81.148264},
{"code":"SBA","name":"Santa Barbara","lat":34.413718,"lng":-119.692785},
{"code":"SBG","name":"Sebring Amtrak Station","lat":27.496632,"lng":-81.434202},
{"code":"SBU","name":"Uc Santa Barbara Amtrak Bus Stop","lat":34.414945,"lng":-119.848296},
{"code":"SBY","name":"Shelby Amtrak Station","lat":48.506748,"lng":-111.856649},
{"code":"SCA","name":"St. Catherines","lat":43.147829,"lng":-79.256017},
{"code":"SCC","name":"Santa Clara Amtrak","lat":37.353219,"lng":-121.936576},
{"code":"SCD","name":"St. Cloud Amtrak Station","lat":45.567748,"lng":-94.149093},
{"code":"SCH","name":"Schriever Amtrak","lat":29.746678,"lng":-90.815246},
{"code":"SCS","name":"Sacramento Amtrak Bus Stop","lat":38.576137,"lng":-121.495175},
{"code":"SDL","name":"Slidell Amtrak Station","lat":30.278372,"lng":-89.782565},
{"code":"SDY","name":"Schenectady","lat":42.814724,"lng":-73.942892},
{"code":"SEA","name":"Seattle","lat":47.598445,"lng":-122.330161},
{"code":"SEB","name":"Seabrook","lat":38.9727318,"lng":-76.8435658},
{"code":"SED","name":"Sedalia Amtrak Station","lat":38.711604,"lng":-93.228706},
{"code":"SFA","name":"Sanford Amtrak Auto Train Station","lat":28.808544,"lng":-81.291274},
{"code":"SFC","name":"San Francisco","lat":37.78865,"lng":-122.398867},
{"code":"SHR","name":"Shreveport Sportran Intermodal Terminal","lat":32.499717,"lng":-93.756673},
{"code":"SIM","name":"Simi Valley Amtrak","lat":34.270204,"lng":-118.695163},
{"code":"SJC","name":"San Jose","lat":37.329933,"lng":-121.902388},
{"code":"SJM","name":"St. Joseph-Benton Harbor Amtrak Station","lat":42.10908,"lng":-86.484484},
{"code":"SKN","name":"Stockton","lat":37.945468,"lng":-121.285632},
{"code":"SKT","name":"Stockton","lat":37.957038,"lng":-121.279},
{"code":"SKY","name":"Sandusky Amtrak Station","lat":41.440671,"lng":-82.717866},
{"code":"SLC","name":"Salt Lake City","lat":40.761661,"lng":-111.908349},
{"code":"SLM","name":"Salem","lat":44.932331,"lng":-123.028331},
{"code":"SLO","name":"San Luis Obispo","lat":35.276434,"lng":-120.654701},
{"code":"SLP","name":"San Luis Obispo Amtrak Bus Stop","lat":35.298857,"lng":-120.655671},
{"code":"SLQ","name":"St-Lambert Amtrak Station","lat":45.498896,"lng":-73.507287},
{"code":"SLV","name":"Solvang Amtrak Bus Stop","lat":34.595913,"lng":-120.14058},
{"code":"SMC","name":"San Marcos Amtrak","lat":29.876571,"lng":-97.941049},
{"code":"SMN","name":"Santa Monica Pier","lat":34.012692,"lng":-118.494637},
{"code":"SMT","name":"Summit Amtrak","lat":41.794912,"lng":-87.809742},
{"code":"SNA","name":"Santa Ana","lat":33.751629,"lng":-117.856607},
{"code":"SNB","name":"San Bernardino","lat":34.104112,"lng":-117.310659},
{"code":"SNC","name":"San Juan Capistrano Amtrak Station","lat":33.501318,"lng":-117.663813},
{"code":"SND","name":"Sanderson Amtrak","lat":30.139951,"lng":-102.398746},
{"code":"SNP","name":"San Clemente Pier Amtrak","lat":33.419645,"lng":-117.619733},
{"code":"SNS","name":"Salinas","lat":36.679145,"lng":-121.656745},
{"code":"SOB","name":"South Bend Amtrak Station","lat":41.67836,"lng":-86.287345},
{"code":"SOL","name":"Solana Beach Amtrak Station","lat":32.992937,"lng":-117.271135},
{"code":"SOP","name":"Southern Pines Amtrak Station","lat":35.175069,"lng":-79.390303},
{"code":"SPB","name":"Spartanburg Amtrak Station","lat":34.953736,"lng":-81.936917},
{"code":"SPG","name":"Springfield","lat":42.105987,"lng":-72.592905},
{"code":"SPI","name":"Springfield","lat":39.802323,"lng":-89.651384},
{"code":"SPK","name":"Spokane","lat":47.65672,"lng":-117.415455},
{"code":"SPL","name":"Staples Amtrak Station","lat":46.354601,"lng":-94.795331},
{"code":"SPM","name":"South Portsmouth Amtrak","lat":38.721281,"lng":-82.963751},
{"code":"SPT","name":"Sandpoint Amtrak","lat":48.276234,"lng":-116.545583},
{"code":"SPX","name":"Sparks Amtrak Bus Stop","lat":39.533532,"lng":-119.757111},
{"code":"SRA","name":"Sarasota Amtrak Bus Stop","lat":27.337166,"lng":-82.456626},
{"code":"SRC","name":"Santa Rosa Amtrak Bus Stop","lat":38.455605,"lng":-122.727626},
{"code":"SSM","name":"Selma","lat":35.532786,"lng":-78.280099},
{"code":"STA","name":"Staunton Amtrak Station","lat":38.147639,"lng":-79.071776},
{"code":"STL","name":"St. Louis","lat":38.624195,"lng":-90.203973},
{"code":"STM","name":"Stamford Amtrak Station","lat":41.04713,"lng":-73.54216},
{"code":"STN","name":"Stanley Amtrak Station","lat":48.319813,"lng":-102.389379},
{"code":"STP","name":"St. Petersburg","lat":27.843029,"lng":-82.644428},
{"code":"STS","name":"New Haven","lat":41.305253,"lng":-72.922086},
{"code":"STW","name":"Stanwood Amtrak","lat":48.242638,"lng":-122.349935},
{"code":"SUI","name":"Suisun-Fairfield","lat":38.243401,"lng":-122.041099},
{"code":"SVT","name":"Sturtevant Amtrak Station","lat":42.718292,"lng":-87.9063},
{"code":"SWB","name":"Swansboro","lat":34.697075,"lng":-77.13963},
{"code":"SYR","name":"Syracuse Regional Transportation Center","lat":43.076548,"lng":-76.169244},
{"code":"TAC","name":"Tacoma","lat":47.239803,"lng":-122.428099},
{"code":"TAY","name":"Taylor Amtrak","lat":30.567667,"lng":-97.407763},
{"code":"TCA","name":"Toccoa Amtrak Station","lat":34.578456,"lng":-83.331542},
{"code":"TCL","name":"Tuscaloosa Amtrak Station","lat":33.193165,"lng":-87.560228},
{"code":"TEH","name":"Tehachapi Amtrak Bus Stop","lat":35.132772,"lng":-118.451143},
{"code":"TEM","name":"Tempe Amtrak Bus Stop","lat":33.427551,"lng":-111.943154},
{"code":"THN","name":"Thurmond Amtrak","lat":37.956986,"lng":-81.078754},
{"code":"TOH","name":"Tomah Amtrak Station","lat":43.986007,"lng":-90.505331},
{"code":"TOL","name":"Toledo","lat":41.638345,"lng":-83.541721},
{"code":"TOP","name":"Topeka Amtrak Station","lat":39.051415,"lng":-95.664916},
{"code":"TPA","name":"Tampa","lat":27.952492,"lng":-82.450777},
{"code":"TPL","name":"Temple","lat":31.095883,"lng":-97.345792},
{"code":"TRA","name":"Tracy Bus Stop Amtrak Bus Stop","lat":37.761409,"lng":-121.436094},
{"code":"TRE","name":"Trenton","lat":40.219011,"lng":-74.75444},
{"code":"TRI","name":"Trinidad Amtrak","lat":37.172688,"lng":-104.507981},
{"code":"TRM","name":"Troy Amtrak Station","lat":42.542555,"lng":-83.191026},
{"code":"TRU","name":"Truckee Amtrak Station","lat":39.327616,"lng":-120.185387},
{"code":"TUK","name":"Tukwila Amtrak","lat":47.461081,"lng":-122.240254},
{"code":"TUS","name":"Tucson Amtrak Station","lat":32.222977,"lng":-110.96677},
{"code":"TVF","name":"The Villages-Lady Lake Amtrak Bus Stop","lat":28.953067,"lng":-81.957989},
{"code":"TWO","name":"Toronto","lat":43.645427,"lng":-79.380762},
{"code":"TXA","name":"Texarkana Amtrak Station","lat":33.420067,"lng":-94.043082},
{"code":"TYR","name":"Tyrone Amtrak","lat":40.667705,"lng":-78.24047},
{"code":"UCA","name":"Utica Amtrak Station","lat":43.103892,"lng":-75.223434},
{"code":"UKH","name":"Ukiah Amtrak Bus Stop","lat":39.15194,"lng":-123.198704},
{"code":"VAB","name":"Virginia Beach Amtrak Bus Stop","lat":36.847096,"lng":-75.978111},
{"code":"VAC","name":"Vancouver","lat":49.273757,"lng":-123.098336},
{"code":"VAL","name":"Vallejo","lat":38.100262,"lng":-122.25924},
{"code":"VAN","name":"Vancouver","lat":45.628901,"lng":-122.686544},
{"code":"VEC","name":"Ventura Amtrak","lat":34.276929,"lng":-119.299918},
{"code":"VNC","name":"Van Nuys","lat":34.211294,"lng":-118.448206},
{"code":"VRN","name":"Ferrisburgh","lat":44.180921,"lng":-73.248824},
{"code":"VRV","name":"Victorville Amtrak","lat":34.5372,"lng":-117.292956},
{"code":"WAB","name":"Waterbury-Stowe Amtrak Station","lat":44.335011,"lng":-72.751806},
{"code":"WAH","name":"Washington Amtrak Station","lat":38.561466,"lng":-91.012717},
{"code":"WAR","name":"Warrensburg Amtrak Station","lat":38.76275,"lng":-93.7409},
{"code":"WAS","name":"Washington Union Station","lat":38.896993,"lng":-77.006422},
{"code":"WBG","name":"Williamsburg Amtrak Station","lat":37.276414,"lng":-76.708564},
{"code":"WBL","name":"West Baltimore","lat":39.293448,"lng":-76.6533103},
{"code":"WDB","name":"Woodbridge Amtrak","lat":38.658915,"lng":-77.247852},
{"code":"WDL","name":"Wisconsin Dells Amtrak Station","lat":43.626509,"lng":-89.777451},
{"code":"WDO","name":"Waldo Amtrak Station","lat":29.790507,"lng":-82.166727},
{"code":"WEL","name":"Wellington","lat":37.274929,"lng":-97.381842},
{"code":"WEM","name":"Wells","lat":43.320836,"lng":-70.612192},
{"code":"WEN","name":"Wenatchee Amtrak","lat":47.421556,"lng":-120.306552},
{"code":"WES","name":"Westwood Ucla Amtrak Bus Stop","lat":34.068772,"lng":-118.448979},
{"code":"WFD","name":"Wallingford Amtrak","lat":41.456969,"lng":-72.825221},
{"code":"WFH","name":"Whitefish Amtrak Station","lat":48.413474,"lng":-114.335575},
{"code":"WGL","name":"West Glacier Amtrak","lat":48.496218,"lng":-113.979164},
{"code":"WHL","name":"Whitehall Amtrak","lat":43.554694,"lng":-73.403207},
{"code":"WIC","name":"Wichita Amtrak Station","lat":37.684706,"lng":-97.334058},
{"code":"WIH","name":"Wishram Amtrak","lat":45.657669,"lng":-120.966142},
{"code":"WIL","name":"Wilmington","lat":39.737263,"lng":-75.551095},
{"code":"WIN","name":"Winona","lat":44.044404,"lng":-91.640073},
{"code":"WIP","name":"Winter Park/Fraser","lat":39.947566,"lng":-105.817388},
{"code":"WLN","name":"Wilson","lat":35.723135,"lng":-77.908029},
{"code":"WLO","name":"Winslow Amtrak","lat":35.021666,"lng":-110.694981},
{"code":"WLY","name":"Westerly Amtrak Station","lat":41.381081,"lng":-71.82978},
{"code":"WMH","name":"Williams","lat":35.25114,"lng":-112.198135},
{"code":"WMN","name":"Wilmington Amtrak Station","lat":34.251192,"lng":-77.874895},
{"code":"WND","name":"Windsor","lat":41.852013,"lng":-72.642253},
{"code":"WNL","name":"Windsor Locks","lat":41.913956,"lng":-72.626101},
{"code":"WNM","name":"Windsor-Mt. Ascutney Amtrak","lat":43.479908,"lng":-72.384985},
{"code":"WNN","name":"Winnemucca Amtrak","lat":40.969044,"lng":-117.73221},
{"code":"WNR","name":"Walnut Ridge Amtrak Station","lat":36.06766,"lng":-90.956766},
{"code":"WOB","name":"Woburn Amtrak Station","lat":42.517358,"lng":-71.143823},
{"code":"WOR","name":"Worcester Union Station","lat":42.261478,"lng":-71.794812},
{"code":"WPB","name":"West Palm Beach Amtrak Station","lat":26.712554,"lng":-80.062184},
{"code":"WPK","name":"Winter Park Amtrak Station","lat":28.597099,"lng":-81.351993},
{"code":"WPR","name":"Winter Park Ski Resort Amtrak Station","lat":39.887584,"lng":-105.763245},
{"code":"WPS","name":"Winter Park","lat":39.88369,"lng":-105.761836},
{"code":"WPT","name":"Wolf Point Amtrak Station","lat":48.091672,"lng":-105.642736},
{"code":"WRJ","name":"White River Junction Amtrak Station","lat":43.647785,"lng":-72.317272},
{"code":"WSB","name":"Westbrook","lat":41.288787,"lng":-72.448},
{"code":"WSP","name":"Westport","lat":44.187288,"lng":-73.451773},
{"code":"WSS","name":"White Sulphur Springs Amtrak","lat":37.786443,"lng":-80.304004},
{"code":"WTH","name":"Winter Haven","lat":28.002146,"lng":-81.734878},
{"code":"WTI","name":"Waterloo Amtrak Station","lat":41.431816,"lng":-85.024298},
{"code":"WTN","name":"Williston Amtrak Station","lat":48.143,"lng":-103.620926},
{"code":"WTS","name":"Willits Calif Western Railroad Depot Amtrak","lat":39.412597,"lng":-123.351003},
{"code":"WWD","name":"Wildwood Amtrak Station","lat":28.866164,"lng":-82.039518},
{"code":"YAZ","name":"Yazoo City Amtrak","lat":32.848477,"lng":-90.41523},
{"code":"YEM","name":"Yemassee Amtrak","lat":32.688286,"lng":-80.846901},
{"code":"YNY","name":"Yonkers Amtrak Station","lat":40.935586,"lng":-73.902263},
{"code":"YUM","name":"Yuma Amtrak","lat":32.723139,"lng":-114.615571}
]
